[
	{
	  "HotelID": 396258,
	  "CountryISO": "CO",
	  "LangID": 40,
	  "Name": " Hotel Pivitol",
	  "Country": "Heard and McDonald Islands",
	  "City": "Onton",
	  "latitude": "22.748893",
	  "longitude": "-90.239154",
	  "Address": "Whitwell Place",
	  "Region": "Nebraska",
	  "ZIP": 53109,
	  "Rank": 14584,
	  "Locations": ""
	},
	{
	  "HotelID": 169920,
	  "CountryISO": "BE",
	  "LangID": 24,
	  "Name": " Hotel Geekmosis",
	  "Country": "Israel",
	  "City": "Crucible",
	  "latitude": "63.598648",
	  "longitude": "-108.681158",
	  "Address": "Heyward Street",
	  "Region": "West Virginia",
	  "ZIP": 59640,
	  "Rank": 13311,
	  "Locations": ""
	},
	{
	  "HotelID": 249743,
	  "CountryISO": "SW",
	  "LangID": 27,
	  "Name": " Hotel Otherway",
	  "Country": "Haiti",
	  "City": "Fulford",
	  "latitude": "-55.940245",
	  "longitude": "67.974503",
	  "Address": "Harkness Avenue",
	  "Region": "Rhode Island",
	  "ZIP": 61710,
	  "Rank": 13316,
	  "Locations": ""
	},
	{
	  "HotelID": 361459,
	  "CountryISO": "CO",
	  "LangID": 43,
	  "Name": " Hotel Eternis",
	  "Country": "Nicaragua",
	  "City": "Twilight",
	  "latitude": "24.138563",
	  "longitude": "-123.309544",
	  "Address": "Jerome Avenue",
	  "Region": "Michigan",
	  "ZIP": 48452,
	  "Rank": 12753,
	  "Locations": ""
	},
	{
	  "HotelID": 408401,
	  "CountryISO": "OM",
	  "LangID": 21,
	  "Name": " Hotel Xanide",
	  "Country": "Gibraltar",
	  "City": "Westerville",
	  "latitude": "-64.040682",
	  "longitude": "52.687015",
	  "Address": "Varick Street",
	  "Region": "Vermont",
	  "ZIP": 47960,
	  "Rank": 13829,
	  "Locations": ""
	},
	{
	  "HotelID": 381388,
	  "CountryISO": "FA",
	  "LangID": 20,
	  "Name": " Hotel Rotodyne",
	  "Country": "Denmark",
	  "City": "National",
	  "latitude": "-58.155591",
	  "longitude": "107.393767",
	  "Address": "Seba Avenue",
	  "Region": "Idaho",
	  "ZIP": 48352,
	  "Rank": 13733,
	  "Locations": ""
	},
	{
	  "HotelID": 184692,
	  "CountryISO": "AF",
	  "LangID": 44,
	  "Name": " Hotel Applica",
	  "Country": "Mexico",
	  "City": "Frank",
	  "latitude": "79.953286",
	  "longitude": "-4.809935",
	  "Address": "Miller Place",
	  "Region": "Wyoming",
	  "ZIP": 46760,
	  "Rank": 14178,
	  "Locations": ""
	},
	{
	  "HotelID": 412620,
	  "CountryISO": "VI",
	  "LangID": 45,
	  "Name": " Hotel Danja",
	  "Country": "Sao Tome and Principe",
	  "City": "Aberdeen",
	  "latitude": "-5.327607",
	  "longitude": "-93.959402",
	  "Address": "King Street",
	  "Region": "Massachusetts",
	  "ZIP": 41559,
	  "Rank": 14150,
	  "Locations": ""
	},
	{
	  "HotelID": 208135,
	  "CountryISO": "FI",
	  "LangID": 26,
	  "Name": " Hotel Conjurica",
	  "Country": "Sri Lanka",
	  "City": "Fannett",
	  "latitude": "-30.541067",
	  "longitude": "-36.976154",
	  "Address": "Boynton Place",
	  "Region": "South Dakota",
	  "ZIP": 51873,
	  "Rank": 13254,
	  "Locations": ""
	},
	{
	  "HotelID": 331796,
	  "CountryISO": "JA",
	  "LangID": 29,
	  "Name": " Hotel Affluex",
	  "Country": "Bangladesh",
	  "City": "Elliston",
	  "latitude": "-66.29315",
	  "longitude": "-161.804573",
	  "Address": "India Street",
	  "Region": "Virgin Islands",
	  "ZIP": 59377,
	  "Rank": 14925,
	  "Locations": ""
	},
	{
	  "HotelID": 413736,
	  "CountryISO": "TU",
	  "LangID": 36,
	  "Name": " Hotel Austex",
	  "Country": "Bhutan",
	  "City": "Caroleen",
	  "latitude": "-81.666329",
	  "longitude": "140.408513",
	  "Address": "Doscher Street",
	  "Region": "Oklahoma",
	  "ZIP": 54917,
	  "Rank": 12171,
	  "Locations": ""
	},
	{
	  "HotelID": 404269,
	  "CountryISO": "IR",
	  "LangID": 41,
	  "Name": " Hotel Zolarity",
	  "Country": "Korea (South)",
	  "City": "Freeburn",
	  "latitude": "25.054314",
	  "longitude": "20.858241",
	  "Address": "Fiske Place",
	  "Region": "Wisconsin",
	  "ZIP": 40767,
	  "Rank": 13012,
	  "Locations": ""
	},
	{
	  "HotelID": 239468,
	  "CountryISO": "BO",
	  "LangID": 23,
	  "Name": " Hotel Protodyne",
	  "Country": "Kazakhstan",
	  "City": "Ribera",
	  "latitude": "40.119432",
	  "longitude": "-107.317935",
	  "Address": "Grant Avenue",
	  "Region": "North Dakota",
	  "ZIP": 44283,
	  "Rank": 12972,
	  "Locations": ""
	},
	{
	  "HotelID": 202455,
	  "CountryISO": "MY",
	  "LangID": 26,
	  "Name": " Hotel Homelux",
	  "Country": "Slovak Republic",
	  "City": "Nogal",
	  "latitude": "-60.308756",
	  "longitude": "157.870788",
	  "Address": "Monument Walk",
	  "Region": "Louisiana",
	  "ZIP": 49765,
	  "Rank": 12466,
	  "Locations": ""
	},
	{
	  "HotelID": 254553,
	  "CountryISO": "ZA",
	  "LangID": 30,
	  "Name": " Hotel Turnabout",
	  "Country": "Sudan",
	  "City": "Moraida",
	  "latitude": "-47.176604",
	  "longitude": "-83.842569",
	  "Address": "Melba Court",
	  "Region": "Delaware",
	  "ZIP": 62109,
	  "Rank": 13459,
	  "Locations": ""
	},
	{
	  "HotelID": 231771,
	  "CountryISO": "SA",
	  "LangID": 26,
	  "Name": " Hotel Zaggles",
	  "Country": "Burundi",
	  "City": "Wadsworth",
	  "latitude": "18.063965",
	  "longitude": "-171.150894",
	  "Address": "Wakeman Place",
	  "Region": "Arizona",
	  "ZIP": 55229,
	  "Rank": 14460,
	  "Locations": ""
	},
	{
	  "HotelID": 375791,
	  "CountryISO": "TA",
	  "LangID": 43,
	  "Name": " Hotel Imaginart",
	  "Country": "Ethiopia",
	  "City": "Dana",
	  "latitude": "80.933188",
	  "longitude": "-34.305207",
	  "Address": "Jamison Lane",
	  "Region": "Kansas",
	  "ZIP": 55192,
	  "Rank": 13131,
	  "Locations": ""
	},
	{
	  "HotelID": 421156,
	  "CountryISO": "PU",
	  "LangID": 35,
	  "Name": " Hotel Comdom",
	  "Country": "Reunion",
	  "City": "Nutrioso",
	  "latitude": "66.390441",
	  "longitude": "45.265233",
	  "Address": "Lott Place",
	  "Region": "Alabama",
	  "ZIP": 49781,
	  "Rank": 13862,
	  "Locations": ""
	},
	{
	  "HotelID": 387774,
	  "CountryISO": "CO",
	  "LangID": 38,
	  "Name": " Hotel Uberlux",
	  "Country": "Togo",
	  "City": "Dixie",
	  "latitude": "-15.852336",
	  "longitude": "155.121084",
	  "Address": "Bleecker Street",
	  "Region": "District Of Columbia",
	  "ZIP": 54423,
	  "Rank": 14768,
	  "Locations": ""
	},
	{
	  "HotelID": 409494,
	  "CountryISO": "MA",
	  "LangID": 31,
	  "Name": " Hotel Enquility",
	  "Country": "El Salvador",
	  "City": "Courtland",
	  "latitude": "-66.750516",
	  "longitude": "31.592348",
	  "Address": "Montague Terrace",
	  "Region": "Connecticut",
	  "ZIP": 55787,
	  "Rank": 12362,
	  "Locations": ""
	},
	{
	  "HotelID": 261381,
	  "CountryISO": "GA",
	  "LangID": 37,
	  "Name": " Hotel Sarasonic",
	  "Country": "Honduras",
	  "City": "Hemlock",
	  "latitude": "-83.130376",
	  "longitude": "-136.998858",
	  "Address": "Reed Street",
	  "Region": "Mississippi",
	  "ZIP": 56705,
	  "Rank": 13535,
	  "Locations": ""
	},
	{
	  "HotelID": 265222,
	  "CountryISO": "MO",
	  "LangID": 45,
	  "Name": " Hotel Xoggle",
	  "Country": "Australia",
	  "City": "Roy",
	  "latitude": "-22.487766",
	  "longitude": "-42.706305",
	  "Address": "Bevy Court",
	  "Region": "Arkansas",
	  "ZIP": 55377,
	  "Rank": 12711,
	  "Locations": ""
	},
	{
	  "HotelID": 268859,
	  "CountryISO": "CH",
	  "LangID": 20,
	  "Name": " Hotel Comveyer",
	  "Country": "Syria",
	  "City": "Lodoga",
	  "latitude": "-26.424737",
	  "longitude": "14.950213",
	  "Address": "Cypress Court",
	  "Region": "Colorado",
	  "ZIP": 61108,
	  "Rank": 13494,
	  "Locations": ""
	},
	{
	  "HotelID": 286067,
	  "CountryISO": "VA",
	  "LangID": 44,
	  "Name": " Hotel Plutorque",
	  "Country": "Poland",
	  "City": "Fresno",
	  "latitude": "-61.478618",
	  "longitude": "-30.604684",
	  "Address": "Chester Avenue",
	  "Region": "Virginia",
	  "ZIP": 42802,
	  "Rank": 12359,
	  "Locations": ""
	},
	{
	  "HotelID": 193447,
	  "CountryISO": "SA",
	  "LangID": 23,
	  "Name": " Hotel Rodemco",
	  "Country": "Bahrain",
	  "City": "Sylvanite",
	  "latitude": "-88.056888",
	  "longitude": "19.320671",
	  "Address": "Brighton Court",
	  "Region": "Palau",
	  "ZIP": 61626,
	  "Rank": 14293,
	  "Locations": ""
	},
	{
	  "HotelID": 171532,
	  "CountryISO": "ST",
	  "LangID": 31,
	  "Name": " Hotel Glukgluk",
	  "Country": "Namibia",
	  "City": "Centerville",
	  "latitude": "88.903915",
	  "longitude": "35.727665",
	  "Address": "Orient Avenue",
	  "Region": "Federated States Of Micronesia",
	  "ZIP": 34910,
	  "Rank": 14713,
	  "Locations": ""
	},
	{
	  "HotelID": 268120,
	  "CountryISO": "QA",
	  "LangID": 33,
	  "Name": " Hotel Greeker",
	  "Country": "Western Sahara",
	  "City": "Thatcher",
	  "latitude": "-40.218999",
	  "longitude": "135.319629",
	  "Address": "Dikeman Street",
	  "Region": "Ohio",
	  "ZIP": 37909,
	  "Rank": 13702,
	  "Locations": ""
	},
	{
	  "HotelID": 238641,
	  "CountryISO": "UG",
	  "LangID": 25,
	  "Name": " Hotel Zork",
	  "Country": "China",
	  "City": "Dixonville",
	  "latitude": "61.794104",
	  "longitude": "-134.311532",
	  "Address": "Clay Street",
	  "Region": "Maryland",
	  "ZIP": 54853,
	  "Rank": 13812,
	  "Locations": ""
	},
	{
	  "HotelID": 372020,
	  "CountryISO": "CA",
	  "LangID": 41,
	  "Name": " Hotel Earthpure",
	  "Country": "Bahamas",
	  "City": "Cavalero",
	  "latitude": "-14.563663",
	  "longitude": "167.147515",
	  "Address": "Ovington Avenue",
	  "Region": "North Carolina",
	  "ZIP": 40556,
	  "Rank": 13491,
	  "Locations": ""
	},
	{
	  "HotelID": 348698,
	  "CountryISO": "MO",
	  "LangID": 42,
	  "Name": " Hotel Brainquil",
	  "Country": "Bulgaria",
	  "City": "Bluffview",
	  "latitude": "42.142214",
	  "longitude": "-9.352516",
	  "Address": "Colonial Road",
	  "Region": "New York",
	  "ZIP": 46646,
	  "Rank": 12722,
	  "Locations": ""
	},
	{
	  "HotelID": 181324,
	  "CountryISO": "SI",
	  "LangID": 25,
	  "Name": " Hotel Boilcat",
	  "Country": "Hong Kong",
	  "City": "Foxworth",
	  "latitude": "47.007015",
	  "longitude": "-50.796246",
	  "Address": "Lyme Avenue",
	  "Region": "Georgia",
	  "ZIP": 48623,
	  "Rank": 12854,
	  "Locations": ""
	},
	{
	  "HotelID": 384793,
	  "CountryISO": "GR",
	  "LangID": 38,
	  "Name": " Hotel Datagene",
	  "Country": "Eritrea",
	  "City": "Rushford",
	  "latitude": "32.098999",
	  "longitude": "-121.470566",
	  "Address": "Schenck Court",
	  "Region": "Oregon",
	  "ZIP": 47869,
	  "Rank": 13225,
	  "Locations": ""
	},
	{
	  "HotelID": 290671,
	  "CountryISO": "CA",
	  "LangID": 43,
	  "Name": " Hotel Oulu",
	  "Country": "American Samoa",
	  "City": "Jugtown",
	  "latitude": "16.740949",
	  "longitude": "126.631385",
	  "Address": "Forbell Street",
	  "Region": "Texas",
	  "ZIP": 45279,
	  "Rank": 13435,
	  "Locations": ""
	},
	{
	  "HotelID": 136371,
	  "CountryISO": "FR",
	  "LangID": 23,
	  "Name": " Hotel Skyplex",
	  "Country": "Marshall Islands",
	  "City": "Gorham",
	  "latitude": "54.167247",
	  "longitude": "-57.245543",
	  "Address": "Manhattan Court",
	  "Region": "New Hampshire",
	  "ZIP": 38372,
	  "Rank": 12312,
	  "Locations": ""
	},
	{
	  "HotelID": 218578,
	  "CountryISO": "GU",
	  "LangID": 30,
	  "Name": " Hotel Pharmex",
	  "Country": "Spain",
	  "City": "Weogufka",
	  "latitude": "61.797435",
	  "longitude": "88.961896",
	  "Address": "President Street",
	  "Region": "New Mexico",
	  "ZIP": 63884,
	  "Rank": 12939,
	  "Locations": ""
	},
	{
	  "HotelID": 297087,
	  "CountryISO": "BO",
	  "LangID": 41,
	  "Name": " Hotel Beadzza",
	  "Country": "Madagascar",
	  "City": "Chloride",
	  "latitude": "-7.040939",
	  "longitude": "-77.073871",
	  "Address": "Woodpoint Road",
	  "Region": "Missouri",
	  "ZIP": 42453,
	  "Rank": 14895,
	  "Locations": ""
	},
	{
	  "HotelID": 359996,
	  "CountryISO": "TA",
	  "LangID": 33,
	  "Name": " Hotel Bulljuice",
	  "Country": "Iraq",
	  "City": "Roeville",
	  "latitude": "79.543994",
	  "longitude": "-141.210177",
	  "Address": "Wyckoff Street",
	  "Region": "California",
	  "ZIP": 39846,
	  "Rank": 14694,
	  "Locations": ""
	},
	{
	  "HotelID": 215216,
	  "CountryISO": "AR",
	  "LangID": 26,
	  "Name": " Hotel Slax",
	  "Country": "Turkey",
	  "City": "Greer",
	  "latitude": "-61.212358",
	  "longitude": "-0.083058",
	  "Address": "Orange Street",
	  "Region": "Nevada",
	  "ZIP": 46741,
	  "Rank": 14934,
	  "Locations": ""
	},
	{
	  "HotelID": 168403,
	  "CountryISO": "TA",
	  "LangID": 24,
	  "Name": " Hotel Navir",
	  "Country": "Iran",
	  "City": "Sheatown",
	  "latitude": "-63.035043",
	  "longitude": "-66.086462",
	  "Address": "Hopkins Street",
	  "Region": "American Samoa",
	  "ZIP": 49425,
	  "Rank": 14896,
	  "Locations": ""
	},
	{
	  "HotelID": 444261,
	  "CountryISO": "VI",
	  "LangID": 42,
	  "Name": " Hotel Medmex",
	  "Country": "Tunisia",
	  "City": "Warren",
	  "latitude": "8.665174",
	  "longitude": "-7.581818",
	  "Address": "Garden Place",
	  "Region": "Illinois",
	  "ZIP": 41215,
	  "Rank": 12933,
	  "Locations": ""
	},
	{
	  "HotelID": 379284,
	  "CountryISO": "WA",
	  "LangID": 42,
	  "Name": " Hotel Terrasys",
	  "Country": "Estonia",
	  "City": "Lutsen",
	  "latitude": "-3.592304",
	  "longitude": "-64.385321",
	  "Address": "Howard Place",
	  "Region": "Indiana",
	  "ZIP": 46280,
	  "Rank": 13579,
	  "Locations": ""
	},
	{
	  "HotelID": 309595,
	  "CountryISO": "TO",
	  "LangID": 31,
	  "Name": " Hotel Biohab",
	  "Country": "Argentina",
	  "City": "Adamstown",
	  "latitude": "3.473534",
	  "longitude": "-162.00165",
	  "Address": "Alton Place",
	  "Region": "Kentucky",
	  "ZIP": 61901,
	  "Rank": 14908,
	  "Locations": ""
	},
	{
	  "HotelID": 350983,
	  "CountryISO": "YU",
	  "LangID": 31,
	  "Name": " Hotel Caxt",
	  "Country": "Germany",
	  "City": "Wanship",
	  "latitude": "32.808954",
	  "longitude": "-54.638835",
	  "Address": "Garden Street",
	  "Region": "Minnesota",
	  "ZIP": 48787,
	  "Rank": 12849,
	  "Locations": ""
	},
	{
	  "HotelID": 442581,
	  "CountryISO": "SO",
	  "LangID": 43,
	  "Name": " Hotel Silodyne",
	  "Country": "Russian Federation",
	  "City": "Rockingham",
	  "latitude": "23.805602",
	  "longitude": "-142.892933",
	  "Address": "Ivan Court",
	  "Region": "Pennsylvania",
	  "ZIP": 42764,
	  "Rank": 12167,
	  "Locations": ""
	},
	{
	  "HotelID": 337782,
	  "CountryISO": "GH",
	  "LangID": 36,
	  "Name": " Hotel Tubalum",
	  "Country": "Switzerland",
	  "City": "Yardville",
	  "latitude": "79.72096",
	  "longitude": "17.399673",
	  "Address": "Varick Avenue",
	  "Region": "Maine",
	  "ZIP": 53763,
	  "Rank": 14219,
	  "Locations": ""
	},
	{
	  "HotelID": 300969,
	  "CountryISO": "AL",
	  "LangID": 21,
	  "Name": " Hotel Orbaxter",
	  "Country": "Romania",
	  "City": "Brutus",
	  "latitude": "-21.68204",
	  "longitude": "-13.2778",
	  "Address": "Berkeley Place",
	  "Region": "Alaska",
	  "ZIP": 51399,
	  "Rank": 13925,
	  "Locations": ""
	},
	{
	  "HotelID": 259938,
	  "CountryISO": "NO",
	  "LangID": 26,
	  "Name": " Hotel Envire",
	  "Country": "Chile",
	  "City": "Jacksonwald",
	  "latitude": "53.145774",
	  "longitude": "93.443666",
	  "Address": "Union Street",
	  "Region": "Iowa",
	  "ZIP": 47051,
	  "Rank": 13703,
	  "Locations": ""
	},
	{
	  "HotelID": 360822,
	  "CountryISO": "NE",
	  "LangID": 30,
	  "Name": " Hotel Ronelon",
	  "Country": "Guinea-Bissau",
	  "City": "Norfolk",
	  "latitude": "-59.245093",
	  "longitude": "115.039824",
	  "Address": "Irving Street",
	  "Region": "Northern Mariana Islands",
	  "ZIP": 43325,
	  "Rank": 13942,
	  "Locations": ""
	},
	{
	  "HotelID": 176821,
	  "CountryISO": "SA",
	  "LangID": 43,
	  "Name": " Hotel Ozean",
	  "Country": "Kenya",
	  "City": "Deseret",
	  "latitude": "-38.870605",
	  "longitude": "-26.571747",
	  "Address": "Batchelder Street",
	  "Region": "Hawaii",
	  "ZIP": 49285,
	  "Rank": 13684,
	  "Locations": ""
	},
	{
	  "HotelID": 347803,
	  "CountryISO": "CO",
	  "LangID": 30,
	  "Name": " Hotel Snorus",
	  "Country": "US Minor Outlying Islands",
	  "City": "Waterview",
	  "latitude": "68.840387",
	  "longitude": "-171.778086",
	  "Address": "Kent Avenue",
	  "Region": "Tennessee",
	  "ZIP": 48773,
	  "Rank": 14886,
	  "Locations": ""
	},
	{
	  "HotelID": 294204,
	  "CountryISO": "CR",
	  "LangID": 24,
	  "Name": " Hotel Futurize",
	  "Country": "Macau",
	  "City": "Glenshaw",
	  "latitude": "39.844713",
	  "longitude": "-39.519847",
	  "Address": "Kingsland Avenue",
	  "Region": "Marshall Islands",
	  "ZIP": 56790,
	  "Rank": 12596,
	  "Locations": ""
	},
	{
	  "HotelID": 162673,
	  "CountryISO": "GU",
	  "LangID": 24,
	  "Name": " Hotel Nutralab",
	  "Country": "Solomon Islands",
	  "City": "Stevens",
	  "latitude": "7.3201",
	  "longitude": "115.937067",
	  "Address": "Hoyts Lane",
	  "Region": "Montana",
	  "ZIP": 50332,
	  "Rank": 14798,
	  "Locations": ""
	},
	{
	  "HotelID": 234901,
	  "CountryISO": "MO",
	  "LangID": 27,
	  "Name": " Hotel Netbook",
	  "Country": "Gabon",
	  "City": "Sabillasville",
	  "latitude": "-0.215167",
	  "longitude": "49.371853",
	  "Address": "Dennett Place",
	  "Region": "New Jersey",
	  "ZIP": 38625,
	  "Rank": 14553,
	  "Locations": ""
	},
	{
	  "HotelID": 232706,
	  "CountryISO": "IT",
	  "LangID": 35,
	  "Name": " Hotel Zenthall",
	  "Country": "Laos",
	  "City": "Hatteras",
	  "latitude": "-64.466811",
	  "longitude": "107.843398",
	  "Address": "Ashford Street",
	  "Region": "Washington",
	  "ZIP": 37441,
	  "Rank": 12619,
	  "Locations": ""
	},
	{
	  "HotelID": 373289,
	  "CountryISO": "TH",
	  "LangID": 33,
	  "Name": " Hotel Furnigeer",
	  "Country": "Paraguay",
	  "City": "Thynedale",
	  "latitude": "-86.518252",
	  "longitude": "-137.118147",
	  "Address": "Devoe Street",
	  "Region": "Puerto Rico",
	  "ZIP": 59604,
	  "Rank": 12871,
	  "Locations": ""
	},
	{
	  "HotelID": 310539,
	  "CountryISO": "NA",
	  "LangID": 39,
	  "Name": " Hotel Biotica",
	  "Country": "New Zealand",
	  "City": "Otranto",
	  "latitude": "-50.513637",
	  "longitude": "-179.798331",
	  "Address": "Holly Street",
	  "Region": "Utah",
	  "ZIP": 34719,
	  "Rank": 13767,
	  "Locations": ""
	},
	{
	  "HotelID": 229518,
	  "CountryISO": "AR",
	  "LangID": 42,
	  "Name": " Hotel Portico",
	  "Country": "Djibouti",
	  "City": "Valmy",
	  "latitude": "84.283496",
	  "longitude": "54.120731",
	  "Address": "Thames Street",
	  "Region": "Guam",
	  "ZIP": 54385,
	  "Rank": 14439,
	  "Locations": ""
	},
	{
	  "HotelID": 221630,
	  "CountryISO": "UN",
	  "LangID": 35,
	  "Name": " Hotel Uni",
	  "Country": "Palau",
	  "City": "Caspar",
	  "latitude": "56.319642",
	  "longitude": "-108.295069",
	  "Address": "Eagle Street",
	  "Region": "South Carolina",
	  "ZIP": 49973,
	  "Rank": 13603,
	  "Locations": ""
	},
	{
	  "HotelID": 345816,
	  "CountryISO": "IC",
	  "LangID": 45,
	  "Name": " Hotel Zentix",
	  "Country": "Nepal",
	  "City": "Indio",
	  "latitude": "-59.374219",
	  "longitude": "-150.069216",
	  "Address": "Dekoven Court",
	  "Region": "Nebraska",
	  "ZIP": 44898,
	  "Rank": 14390,
	  "Locations": ""
	},
	{
	  "HotelID": 262178,
	  "CountryISO": "BA",
	  "LangID": 33,
	  "Name": " Hotel Volax",
	  "Country": "Cameroon",
	  "City": "Waiohinu",
	  "latitude": "63.977257",
	  "longitude": "-52.996247",
	  "Address": "Schaefer Street",
	  "Region": "West Virginia",
	  "ZIP": 56455,
	  "Rank": 12790,
	  "Locations": ""
	},
	{
	  "HotelID": 247266,
	  "CountryISO": "S.",
	  "LangID": 32,
	  "Name": " Hotel Apex",
	  "Country": "Cape Verde",
	  "City": "Rockhill",
	  "latitude": "1.790677",
	  "longitude": "58.287121",
	  "Address": "Sackman Street",
	  "Region": "Rhode Island",
	  "ZIP": 51060,
	  "Rank": 13122,
	  "Locations": ""
	},
	{
	  "HotelID": 164373,
	  "CountryISO": "SI",
	  "LangID": 26,
	  "Name": " Hotel Daido",
	  "Country": "France",
	  "City": "Northchase",
	  "latitude": "74.088767",
	  "longitude": "-150.764785",
	  "Address": "Noble Street",
	  "Region": "Michigan",
	  "ZIP": 50705,
	  "Rank": 13154,
	  "Locations": ""
	},
	{
	  "HotelID": 263077,
	  "CountryISO": "LU",
	  "LangID": 38,
	  "Name": " Hotel Mitroc",
	  "Country": "Libya",
	  "City": "Tetherow",
	  "latitude": "-74.601959",
	  "longitude": "176.912815",
	  "Address": "Berry Street",
	  "Region": "Vermont",
	  "ZIP": 46574,
	  "Rank": 12834,
	  "Locations": ""
	},
	{
	  "HotelID": 217429,
	  "CountryISO": "CE",
	  "LangID": 39,
	  "Name": " Hotel Centrexin",
	  "Country": "Dominican Republic",
	  "City": "Sterling",
	  "latitude": "65.405807",
	  "longitude": "55.515361",
	  "Address": "Ocean Avenue",
	  "Region": "Idaho",
	  "ZIP": 35865,
	  "Rank": 14602,
	  "Locations": ""
	},
	{
	  "HotelID": 144985,
	  "CountryISO": "JA",
	  "LangID": 23,
	  "Name": " Hotel Indexia",
	  "Country": "Norfolk Island",
	  "City": "Harrodsburg",
	  "latitude": "-34.195178",
	  "longitude": "174.302572",
	  "Address": "Jewel Street",
	  "Region": "Wyoming",
	  "ZIP": 55884,
	  "Rank": 13470,
	  "Locations": ""
	},
	{
	  "HotelID": 226662,
	  "CountryISO": "GU",
	  "LangID": 20,
	  "Name": " Hotel Pyramax",
	  "Country": "Hungary",
	  "City": "Wheaton",
	  "latitude": "-18.95598",
	  "longitude": "-44.533725",
	  "Address": "Royce Place",
	  "Region": "Massachusetts",
	  "ZIP": 47622,
	  "Rank": 12978,
	  "Locations": ""
	}
  ]
